{"type": "FeatureCollection", "features": [{"type": "Feature", "geometry": {"type": "Point", "coordinates": [11.9878, 43.2741]}, "properties": {"name": "Comune di Cortona", "description": "http://www.comunedicortona.it"}}, {"type": "Feature", "geometry": {"type": "Point", "coordinates": [8.708, 45.2934]}, "properties": {"name": "Comune di Albonese", "description": "http://www.comune.albonese.pv.it"}}, {"type": "Feature", "geometry": {"type": "Point", "coordinates": [9.526, 45.8506]}, "properties": {"name": "Comune di Fuipiano Valle Imagna", "description": "http://www.comune.fuipianovalleimagna.bg.it"}}, {"type": "Feature", "geometry": {"type": "Point", "coordinates": [8.9075, 45.1033]}, "properties": {"name": "Comune di Sannazzaro De' Burgondi", "description": "http://www.comune.sannazzarodeburgondi.pv.it"}}, {"type": "Feature", "geometry": {"type": "Point", "coordinates": [10.5208, 44.4571]}, "properties": {"name": "Comune di Carpineti", "description": "http://www.comune.carpineti.re.it"}}, {"type": "Feature", "geometry": {"type": "Point", "coordinates": [15.8013, 40.0686]}, "properties": {"name": "Comune di Nemoli", "description": "http://www.comune.nemoli.pz.it"}}, {"type": "Feature", "geometry": {"type": "Point", "coordinates": [8.7974, 45.122]}, "properties": {"name": "Comune di Lomello", "description": "http://www.comune.lomello.pv.it"}}, {"type": "Feature", "geometry": {"type": "Point", "coordinates": [15.7756, 40.0277]}, "properties": {"name": "Comune di Trecchina", "description": "https://trecchina.gov.it/"}}, {"type": "Feature", "geometry": {"type": "Point", "coordinates": [9.7244, 45.3467]}, "properties": {"name": "Comune di Madignano", "description": "https://www.comune.madignano.cr.it"}}, {"type": "Feature", "geometry": {"type": "Point", "coordinates": [14.9917, 40.9883]}, "properties": {"name": "Comune di Luogosano", "description": "http://www.comune.luogosano.av.it"}}, {"type": "Feature", "geometry": {"type": "Point", "coordinates": [16.0991, 40.076]}, "properties": {"name": "Comune di Episcopia", "description": "https://episcopia.gov.it"}}, {"type": "Feature", "geometry": {"type": "Point", "coordinates": [14.4382, 40.8718]}, "properties": {"name": "Comune di Somma Vesuviana", "description": "http://www.comune.sommavesuviana.na.it"}}, {"type": "Feature", "geometry": {"type": "Point", "coordinates": [13.3161, 46.4489]}, "properties": {"name": "Comune di Dogna", "description": "http://www.comune.dogna.ud.it"}}, {"type": "Feature", "geometry": {"type": "Point", "coordinates": [8.6668, 45.1518]}, "properties": {"name": "Comune di Valle Lomellina", "description": "http://www.comune.vallelomellina.pv.it"}}, {"type": "Feature", "geometry": {"type": "Point", "coordinates": [13.8781, 42.9495]}, "properties": {"name": "Comune di San Benedetto del Tronto", "description": "http://www.comunesbt.it"}}, {"type": "Feature", "geometry": {"type": "Point", "coordinates": [11.25, 43.7667]}, "properties": {"name": "Comune di Firenze", "description": "http://www.comune.fi.it"}}, {"type": "Feature", "geometry": {"type": "Point", "coordinates": [8.7913, 45.176]}, "properties": {"name": "Comune di San Giorgio di Lomellina", "description": "http://www.comune.sangiorgiodilomellina.pv.it"}}, {"type": "Feature", "geometry": {"type": "Point", "coordinates": [11.8833, 45.4167]}, "properties": {"name": "Comune di Padova", "description": "http://www.comune.padova.it"}}, {"type": "Feature", "geometry": {"type": "Point", "coordinates": [15.3728, 40.0298]}, "properties": {"name": "Comune di Camerota", "description": "http://www.comune.camerota.sa.it"}}, {"type": "Feature", "geometry": {"type": "Point", "coordinates": [9.4935, 45.3998]}, "properties": {"name": "Comune di Spino d'Adda", "description": "http://www.comune.spinodadda.gov.it"}}, {"type": "Feature", "geometry": {"type": "Point", "coordinates": [8.26, 44.1288]}, "properties": {"name": "Comune di Loano", "description": "http://www.comuneloano.it"}}, {"type": "Feature", "geometry": {"type": "Point", "coordinates": [7.6667, 45.05]}, "properties": {"name": "Comune di Torino", "description": "http://www.comune.torino.it"}}, {"type": "Feature", "geometry": {"type": "Point", "coordinates": [11.3442, 46.2506]}, "properties": {"name": "Comune di Valfloriana", "description": "http://www.comune.valfloriana.tn.it"}}, {"type": "Feature", "geometry": {"type": "Point", "coordinates": [11.2757, 45.9379]}, "properties": {"name": "Comune di Lavarone", "description": "http://www.comune.lavarone.tn.it"}}, {"type": "Feature", "geometry": {"type": "Point", "coordinates": [14.8222, 38.0354]}, "properties": {"name": "Comune di Tortorici", "description": "http://www.tortorici.gov.it"}}, {"type": "Feature", "geometry": {"type": "Point", "coordinates": [7.2487, 44.8025]}, "properties": {"name": "Comune di Lusernetta", "description": "http://www.lusernetta.gov.it"}}, {"type": "Feature", "geometry": {"type": "Point", "coordinates": [11.1717, 45.9163]}, "properties": {"name": "Comune di Folgaria", "description": "http://www.comune.folgaria.tn.it"}}, {"type": "Feature", "geometry": {"type": "Point", "coordinates": [11.2075, 46.118]}, "properties": {"name": "Comune di Fornace", "description": "http://www.comune.fornace.tn.it"}}, {"type": "Feature", "geometry": {"type": "Point", "coordinates": [11.2574, 46.1876]}, "properties": {"name": "Comune di Segonzano", "description": "http://www.comune.segonzano.tn.it"}}, {"type": "Feature", "geometry": {"type": "Point", "coordinates": [16.0949, 38.4182]}, "properties": {"name": "Comune di Cinquefrondi", "description": "http://www.comune.cinquefrondi.rc.it"}}, {"type": "Feature", "geometry": {"type": "Point", "coordinates": [8.8183, 45.4782]}, "properties": {"name": "Comune di Bernate Ticino", "description": "http://www.comune.bernateticino.mi.it"}}, {"type": "Feature", "geometry": {"type": "Point", "coordinates": [10.76, 46.12]}, "properties": {"name": "Comune di Bocenago", "description": "http://www.comune.bocenago.tn.it"}}, {"type": "Feature", "geometry": {"type": "Point", "coordinates": [11.2983, 46.091]}, "properties": {"name": "Comune di Frassilongo", "description": "http://www.comune.frassilongo.tn.it"}}, {"type": "Feature", "geometry": {"type": "Point", "coordinates": [17.7214, 40.5539]}, "properties": {"name": "Comune di Latiano", "description": "http://www.comune.latiano.br.it"}}, {"type": "Feature", "geometry": {"type": "Point", "coordinates": [10.9383, 45.7349]}, "properties": {"name": "Comune di Avio", "description": "http://www.comune.avio.tn.it"}}, {"type": "Feature", "geometry": {"type": "Point", "coordinates": [11.09737, 46.15267]}, "properties": {"name": "Comune di Terre D'Adige", "description": "http://www.comune.terredadige.tn.it"}}, {"type": "Feature", "geometry": {"type": "Point", "coordinates": [10.8407, 46.3226]}, "properties": {"name": "Comune di Commezzadura", "description": "http://www.comune.commezzadura.tn.it"}}, {"type": "Feature", "geometry": {"type": "Point", "coordinates": [13.2327, 38.1314]}, "properties": {"name": "Comune di Torretta", "description": "http://www.comune.torretta.pa.it"}}, {"type": "Feature", "geometry": {"type": "Point", "coordinates": [9.4184, 45.4978]}, "properties": {"name": "Comune di Melzo", "description": "http://www.comune.melzo.mi.it"}}, {"type": "Feature", "geometry": {"type": "Point", "coordinates": [8.681000000000001, 44.403999999999996]}, "properties": {"name": "Comune di Arenzano", "description": "http://www.comune.arenzano.ge.it"}}, {"type": "Feature", "geometry": {"type": "Point", "coordinates": [10.8467, 46.4013]}, "properties": {"name": "Comune di Rabbi", "description": "http://www.comune.rabbi.tn.it"}}, {"type": "Feature", "geometry": {"type": "Point", "coordinates": [11.3286, 44.2275]}, "properties": {"name": "Comune di Monghidoro", "description": "http://www.comune.monghidoro.bo.it"}}, {"type": "Feature", "geometry": {"type": "Point", "coordinates": [10.7312, 45.8885]}, "properties": {"name": "Comune di Ledro", "description": "http://www.comune.ledro.tn.it"}}, {"type": "Feature", "geometry": {"type": "Point", "coordinates": [8.8208, 39.6138]}, "properties": {"name": "Comune di Sardara", "description": "http://www.comune.sardara.vs.it"}}, {"type": "Feature", "geometry": {"type": "Point", "coordinates": [10.8976, 46.0737]}, "properties": {"name": "Comune di San Lorenzo Dorsino", "description": "http://www.comune.sanlorenzodorsino.tn.it"}}, {"type": "Feature", "geometry": {"type": "Point", "coordinates": [8.2558, 45.0094]}, "properties": {"name": "Comune di Calliano", "description": "http://www.comune.calliano.tn.it"}}, {"type": "Feature", "geometry": {"type": "Point", "coordinates": [8.6167, 40.0835]}, "properties": {"name": "Comune di Seneghe", "description": "http://www.comune.seneghe.or.it"}}, {"type": "Feature", "geometry": {"type": "Point", "coordinates": [10.7522, 46.035332]}, "properties": {"name": "Comune di Borgo Lares", "description": "http://www.comune.borgolares.tn.it"}}, {"type": "Feature", "geometry": {"type": "Point", "coordinates": [10.7813, 44.6537]}, "properties": {"name": "Comune di Rubiera", "description": "http://www.comune.rubiera.re.it/"}}, {"type": "Feature", "geometry": {"type": "Point", "coordinates": [11.0429, 46.394]}, "properties": {"name": "Comune di Cagno'", "description": "http://www.comune.cagno.tn.it"}}, {"type": "Feature", "geometry": {"type": "Point", "coordinates": [10.9271, 46.361999999999995]}, "properties": {"name": "Comune di Terzolas", "description": "http://www.comune.terzolas.tn.it"}}, {"type": "Feature", "geometry": {"type": "Point", "coordinates": [13.1896, 45.8034]}, "properties": {"name": "Comune di Carlino", "description": "http://www.comune.carlino.ud.it"}}, {"type": "Feature", "geometry": {"type": "Point", "coordinates": [11.6919, 46.4299]}, "properties": {"name": "San Giovanni di Fassa-Sen Jan", "description": "http://www.comune.senjandifassa.tn.it"}}, {"type": "Feature", "geometry": {"type": "Point", "coordinates": [11.0608, 46.3928]}, "properties": {"name": "Comune di Revo'", "description": "http://www.comune.revo.tn.it"}}, {"type": "Feature", "geometry": {"type": "Point", "coordinates": [11.0045, 46.3998]}, "properties": {"name": "Comune di Cis", "description": "http://www.comune.cis.tn.it"}}, {"type": "Feature", "geometry": {"type": "Point", "coordinates": [14.3865, 37.149]}, "properties": {"name": "Comune di Niscemi", "description": "http://www.comune.niscemi.cl.it"}}, {"type": "Feature", "geometry": {"type": "Point", "coordinates": [10.6026, 45.9161]}, "properties": {"name": "Comune di Castel Condino", "description": "http://www.comune.castelcondino.tn.it"}}, {"type": "Feature", "geometry": {"type": "Point", "coordinates": [11.23846, 46.18237]}, "properties": {"name": "Comune di Altavalle", "description": "http://www.comune.altavalle.tn.it"}}, {"type": "Feature", "geometry": {"type": "Point", "coordinates": [10.9139, 46.3525]}, "properties": {"name": "Comune di Male'", "description": "http://www.comune.male.tn.it"}}, {"type": "Feature", "geometry": {"type": "Point", "coordinates": [9.273, 45.583999999999996]}, "properties": {"name": "Comune di Monza", "description": "http://www.comune.monza.it"}}, {"type": "Feature", "geometry": {"type": "Point", "coordinates": [12.0688, 45.2363]}, "properties": {"name": "Comune di Correzzola", "description": "http://www.comune.correzzola.pd.it"}}, {"type": "Feature", "geometry": {"type": "Point", "coordinates": [10.75858, 46.129959]}, "properties": {"name": "Comune di Caderzone Terme", "description": "http://www.comune.caderzoneterme.tn.it"}}, {"type": "Feature", "geometry": {"type": "Point", "coordinates": [10.6409, 45.9429]}, "properties": {"name": "Comune di Pieve di Bono-prezzo", "description": "http://www.comune.pievedibono-prezzo.tn.it"}}, {"type": "Feature", "geometry": {"type": "Point", "coordinates": [13.3646, 45.7683]}, "properties": {"name": "Comune di Aquileia", "description": "http://www.comune.aquileia.ud.it"}}, {"type": "Feature", "geometry": {"type": "Point", "coordinates": [11.7438, 45.1787]}, "properties": {"name": "Comune di Solesino", "description": "http://www.comunesolesino.it"}}, {"type": "Feature", "geometry": {"type": "Point", "coordinates": [9.1814, 45.5507]}, "properties": {"name": "Comune di Cusano Milanino", "description": "http://www.comune.cusano-milanino.mi.it"}}, {"type": "Feature", "geometry": {"type": "Point", "coordinates": [12.6175, 43.0702]}, "properties": {"name": "Comune di Assisi", "description": "http://www.comune.assisi.pg.it"}}, {"type": "Feature", "geometry": {"type": "Point", "coordinates": [11.40895, 46.050011]}, "properties": {"name": "Comune di Roncegno Terme", "description": "http://www.comune.roncegnoterme.tn.it"}}, {"type": "Feature", "geometry": {"type": "Point", "coordinates": [11.3769, 44.6481]}, "properties": {"name": "Comune di San Giorgio di Piano", "description": "http://www.comune.san-giorgio-di-piano.bo.it"}}, {"type": "Feature", "geometry": {"type": "Point", "coordinates": [10.9513, 45.8906]}, "properties": {"name": "Comune di Ronzo Chienis", "description": "http://www.comune.ronzo-chienis.tn.it"}}, {"type": "Feature", "geometry": {"type": "Point", "coordinates": [13.215, 46.2153]}, "properties": {"name": "Comune di Tarcento", "description": "http://www.comune.tarcento.ud.it"}}, {"type": "Feature", "geometry": {"type": "Point", "coordinates": [11.0186, 46.4419]}, "properties": {"name": "Comune di Rumo", "description": "http://www.comune.rumo.tn.it"}}, {"type": "Feature", "geometry": {"type": "Point", "coordinates": [10.7388, 46.3075]}, "properties": {"name": "Comune di Ossana", "description": "http://www.comune.ossana.tn.it"}}, {"type": "Feature", "geometry": {"type": "Point", "coordinates": [10.9747, 45.9963]}, "properties": {"name": "Comune di Cavedine", "description": "http://www.comune.cavedine.tn.it"}}, {"type": "Feature", "geometry": {"type": "Point", "coordinates": [11.9253, 45.2191]}, "properties": {"name": "Comune di Arre", "description": "http://www.comune.arre.pd.it"}}, {"type": "Feature", "geometry": {"type": "Point", "coordinates": [10.8013, 46.3177]}, "properties": {"name": "Comune di Mezzana", "description": "http://www.comune.mezzana.tn.it"}}, {"type": "Feature", "geometry": {"type": "Point", "coordinates": [11.0978, 46.21]}, "properties": {"name": "Comune di Mezzolombardo", "description": "http://www.comune.mezzolombardo.tn.it"}}, {"type": "Feature", "geometry": {"type": "Point", "coordinates": [9.1408, 45.5318]}, "properties": {"name": "Comune di Novate Milanese", "description": "http://www.comune.novate-milanese.mi.it"}}, {"type": "Feature", "geometry": {"type": "Point", "coordinates": [10.76, 46.1699]}, "properties": {"name": "Comune di Carisolo", "description": "http://www.comune.carisolo.tn.it"}}, {"type": "Feature", "geometry": {"type": "Point", "coordinates": [11.0746, 45.8699]}, "properties": {"name": "Comune di Trambileno", "description": "http://www.comune.trambileno.tn.it"}}, {"type": "Feature", "geometry": {"type": "Point", "coordinates": [11.5436, 46.2867]}, "properties": {"name": "Comune di Panchia'", "description": "http://www.comune.panchia.tn.it"}}, {"type": "Feature", "geometry": {"type": "Point", "coordinates": [11.2658, 45.9959]}, "properties": {"name": "Comune di Caldonazzo", "description": "http://comune.caldonazzo.tn.it"}}, {"type": "Feature", "geometry": {"type": "Point", "coordinates": [11.0939, 46.4052]}, "properties": {"name": "Comune di Dambel", "description": "http://comune.dambel.tn.it"}}, {"type": "Feature", "geometry": {"type": "Point", "coordinates": [11.3584, 45.7135]}, "properties": {"name": "Comune di Schio", "description": "http://www.comune.schio.vi.it"}}, {"type": "Feature", "geometry": {"type": "Point", "coordinates": [11.40895, 46.050011]}, "properties": {"name": "Comune di Ruffre'", "description": "http://www.comune.ruffre.tn.it"}}, {"type": "Feature", "geometry": {"type": "Point", "coordinates": [11.6623, 45.3654]}, "properties": {"name": "Comune di Rovolon", "description": "http://www.comune.rovolon.pd.it"}}, {"type": "Feature", "geometry": {"type": "Point", "coordinates": [10.7614, 42.9189]}, "properties": {"name": "Comune di Follonica", "description": "http://www.comune.follonica.gr.it"}}, {"type": "Feature", "geometry": {"type": "Point", "coordinates": [8.881, 45.4682]}, "properties": {"name": "Comune di Magenta", "description": "http://www.comunedimagenta.it"}}, {"type": "Feature", "geometry": {"type": "Point", "coordinates": [10.8707, 46.0342]}, "properties": {"name": "Comune di Comano Terme", "description": "http://www.comune.comanoterme.tn.it"}}, {"type": "Feature", "geometry": {"type": "Point", "coordinates": [11.8578, 45.2694]}, "properties": {"name": "Comune di Cartura", "description": "http://www.comune.cartura.pd.it"}}, {"type": "Feature", "geometry": {"type": "Point", "coordinates": [11.7928, 45.1974]}, "properties": {"name": "Comune di Pozzonovo", "description": "http://www.comune.pozzonovo.pd.it/"}}, {"type": "Feature", "geometry": {"type": "Point", "coordinates": [10.6928, 46.2985]}, "properties": {"name": "Comune di Vermiglio", "description": "http://www.comune.vermiglio.tn.it"}}, {"type": "Feature", "geometry": {"type": "Point", "coordinates": [11.3017, 46.1701]}, "properties": {"name": "Comune di Bedollo", "description": "http://www.comunebedollo.it"}}, {"type": "Feature", "geometry": {"type": "Point", "coordinates": [11.1888, 46.1616]}, "properties": {"name": "Comune di Cembra Lisignago", "description": "http://www.comune.cembralisignago.tn.it"}}, {"type": "Feature", "geometry": {"type": "Point", "coordinates": [12.0528, 45.2738]}, "properties": {"name": "Comune di Arzergrande", "description": "http://www.comune.arzergrande.pd.it"}}, {"type": "Feature", "geometry": {"type": "Point", "coordinates": [12.645, 45.5354]}, "properties": {"name": "Comune di Jesolo", "description": "http://www.comune.jesolo.ve.it"}}, {"type": "Feature", "geometry": {"type": "Point", "coordinates": [11.450999999999999, 46.0753]}, "properties": {"name": "Comune di Torcegno", "description": "http://www.comune.torcegno.tn.it"}}, {"type": "Feature", "geometry": {"type": "Point", "coordinates": [13.2307, 46.0649]}, "properties": {"name": "Comune di Udine", "description": "http://www.comune.udine.gov.it"}}, {"type": "Feature", "geometry": {"type": "Point", "coordinates": [9.5744, 39.4202]}, "properties": {"name": "Comune di Muravera", "description": "http://comune.muravera.ca.it"}}, {"type": "Feature", "geometry": {"type": "Point", "coordinates": [15.5923, 40.3948]}, "properties": {"name": "Comune di Sala Consilina", "description": "http://www.comunesalaconsilina.it"}}, {"type": "Feature", "geometry": {"type": "Point", "coordinates": [11.1945, 46.146]}, "properties": {"name": "Comune di Albiano", "description": "http://www.comune.albiano.tn.it"}}, {"type": "Feature", "geometry": {"type": "Point", "coordinates": [11.440999999999999, 46.2925]}, "properties": {"name": "Comune di Carano", "description": "http://www.comune.carano.tn.it"}}, {"type": "Feature", "geometry": {"type": "Point", "coordinates": [11.4594, 46.3077]}, "properties": {"name": "Comune di Varena", "description": "http://www.comune.varena.tn.it"}}, {"type": "Feature", "geometry": {"type": "Point", "coordinates": [11.02424, 46.31096]}, "properties": {"name": "Comune di Conta", "description": "http://www.comune.conta.tn.it"}}, {"type": "Feature", "geometry": {"type": "Point", "coordinates": [11.6634, 46.3783]}, "properties": {"name": "Comune di Moena", "description": "http://www.comune.moena.tn.it"}}, {"type": "Feature", "geometry": {"type": "Point", "coordinates": [11.7031, 45.1034]}, "properties": {"name": "Comune di Barbona", "description": "http://www.comunebarbona.pd.it"}}, {"type": "Feature", "geometry": {"type": "Point", "coordinates": [11.1531, 46.1568]}, "properties": {"name": "Comune di Giovo", "description": "http://www.comune.giovo.tn.it"}}, {"type": "Feature", "geometry": {"type": "Point", "coordinates": [11.0244, 45.9137]}, "properties": {"name": "Comune di Nogaredo", "description": "http://www.comune.nogaredo.tn.it"}}, {"type": "Feature", "geometry": {"type": "Point", "coordinates": [15.38, 38.0258]}, "properties": {"name": "Comune di Fiumedinisi", "description": "http://www.comune.fiumedinisi.me.it"}}, {"type": "Feature", "geometry": {"type": "Point", "coordinates": [11.1386, 46.4392]}, "properties": {"name": "Comune di Fondo", "description": "http://www.fondo.it"}}, {"type": "Feature", "geometry": {"type": "Point", "coordinates": [11.7431, 46.4774]}, "properties": {"name": "Comune di Campitello di Fassa", "description": "http://www.comune.campitellodifassa.tn.it"}}, {"type": "Feature", "geometry": {"type": "Point", "coordinates": [12.4803, 42.2074]}, "properties": {"name": "Comune di Rignano Flaminio", "description": "http://www.comune.rignanoflaminio.rm.it"}}, {"type": "Feature", "geometry": {"type": "Point", "coordinates": [11.0312, 46.2378]}, "properties": {"name": "Comune di Sporminore", "description": "http://www.comune.sporminore.tn.it"}}, {"type": "Feature", "geometry": {"type": "Point", "coordinates": [10.6914, 43.8981]}, "properties": {"name": "Comune di Pescia", "description": "http://www.comune.pescia.pt.it"}}, {"type": "Feature", "geometry": {"type": "Point", "coordinates": [10.7238, 46.0889]}, "properties": {"name": "Comune di Pelugo", "description": "http://www.comune.pelugo.tn.it"}}, {"type": "Feature", "geometry": {"type": "Point", "coordinates": [7.8206, 44.3896]}, "properties": {"name": "Comune di Mondovi", "description": "http://www.comune.mondovi.cn.it"}}, {"type": "Feature", "geometry": {"type": "Point", "coordinates": [13.1098, 45.6717]}, "properties": {"name": "Comune di Lignano Sabbiadoro", "description": "http://www.comune.lignano-sabbiadoro.ud.it"}}, {"type": "Feature", "geometry": {"type": "Point", "coordinates": [11.4592, 45.1234]}, "properties": {"name": "Comune di Castelbaldo", "description": "http://www.comune.castelbaldo.pd.it"}}, {"type": "Feature", "geometry": {"type": "Point", "coordinates": [13.0, 45.8077]}, "properties": {"name": "Comune di Ronchis", "description": "http://www.comune.ronchis.ud.it/"}}, {"type": "Feature", "geometry": {"type": "Point", "coordinates": [11.3524, 46.1297]}, "properties": {"name": "Comune di Palu' del Fersina", "description": "http://www.comune.paludelfersina.tn.it"}}, {"type": "Feature", "geometry": {"type": "Point", "coordinates": [10.5513, 45.8058]}, "properties": {"name": "Comune di Bondone", "description": "http://www.comune.bondone.tn.it"}}, {"type": "Feature", "geometry": {"type": "Point", "coordinates": [11.088, 46.4199]}, "properties": {"name": "Comune di Cloz", "description": "http://www.comune.cloz.tn.it"}}, {"type": "Feature", "geometry": {"type": "Point", "coordinates": [10.9649, 46.1431]}, "properties": {"name": "Comune di Molveno", "description": "http://www.comune.molveno.tn.it"}}, {"type": "Feature", "geometry": {"type": "Point", "coordinates": [13.1809, 38.1316]}, "properties": {"name": "Comune di Carini", "description": "http://www.comune.carini.pa.it"}}, {"type": "Feature", "geometry": {"type": "Point", "coordinates": [10.7609, 46.31100000000001]}, "properties": {"name": "Comune di Pellizzano", "description": "http://www.comune.pellizzano.tn.it"}}, {"type": "Feature", "geometry": {"type": "Point", "coordinates": [11.0498, 46.2195]}, "properties": {"name": "Comune di Spormaggiore", "description": "http://www.comune.spormaggiore.tn.it"}}, {"type": "Feature", "geometry": {"type": "Point", "coordinates": [11.0325, 46.1863]}, "properties": {"name": "Comune di Cavedago", "description": "http://www.cavedago.com"}}, {"type": "Feature", "geometry": {"type": "Point", "coordinates": [11.0442, 45.9291]}, "properties": {"name": "Comune di Pomarolo", "description": "http://www.comune.pomarolo.tn.it/"}}, {"type": "Feature", "geometry": {"type": "Point", "coordinates": [14.3191, 42.3489]}, "properties": {"name": "Comune di Tollo", "description": "http://www.comune.tollo.ch.it"}}, {"type": "Feature", "geometry": {"type": "Point", "coordinates": [11.1077, 46.4319]}, "properties": {"name": "Comune di Brez", "description": "http://www.comune.brez.tn.it"}}, {"type": "Feature", "geometry": {"type": "Point", "coordinates": [11.4728, 46.0724]}, "properties": {"name": "Comune di Telve di Sopra", "description": "http://www.comune.telvedisopra.tn.it"}}, {"type": "Feature", "geometry": {"type": "Point", "coordinates": [9.3625, 45.6508]}, "properties": {"name": "Comune di Usmate Velate", "description": "http://www.comune.usmatevelate.mb.it"}}, {"type": "Feature", "geometry": {"type": "Point", "coordinates": [10.98424, 46.026112]}, "properties": {"name": "Comune di Madruzzo", "description": "http://www.comune.madruzzo.tn.it"}}, {"type": "Feature", "geometry": {"type": "Point", "coordinates": [11.6723, 45.3485]}, "properties": {"name": "Comune di Teolo", "description": "http://www.comune.teolo.pd.it"}}, {"type": "Feature", "geometry": {"type": "Point", "coordinates": [11.3669, 46.023]}, "properties": {"name": "Comune di Novaledo", "description": "http://www.comune.novaledo.tn.it"}}, {"type": "Feature", "geometry": {"type": "Point", "coordinates": [11.4903, 45.1099]}, "properties": {"name": "Comune di Masi", "description": "http://www.comune.masi.pd.it"}}, {"type": "Feature", "geometry": {"type": "Point", "coordinates": [8.8863, 45.63]}, "properties": {"name": "Comune di Olgiate Olona", "description": "http://www.comuneolgiateolona.it"}}, {"type": "Feature", "geometry": {"type": "Point", "coordinates": [11.0685, 46.1753]}, "properties": {"name": "Comune di Fai della Paganella", "description": "http://www.comune.faidellapaganella.tn.it"}}, {"type": "Feature", "geometry": {"type": "Point", "coordinates": [11.6868, 45.4245]}, "properties": {"name": "Comune di Cervarese Santa Croce", "description": "http://www.comune.cervarese.pd.it"}}, {"type": "Feature", "geometry": {"type": "Point", "coordinates": [10.8719, 46.3272]}, "properties": {"name": "Comune di Dimaro Folgarida", "description": "http://www.comune.dimarofolgarida.tn.it"}}, {"type": "Feature", "geometry": {"type": "Point", "coordinates": [11.5871, 45.1926]}, "properties": {"name": "Comune di Ponso", "description": "http://www.comune.ponso.pd.it"}}, {"type": "Feature", "geometry": {"type": "Point", "coordinates": [10.9045, 46.3463]}, "properties": {"name": "Comune di Croviana", "description": "http://www.comune.croviana.tn.it/"}}, {"type": "Feature", "geometry": {"type": "Point", "coordinates": [11.1249, 46.3406]}, "properties": {"name": "Comune di Sfruz", "description": "http://www.comune.sfruz.tn.it"}}, {"type": "Feature", "geometry": {"type": "Point", "coordinates": [8.7713, 39.7478]}, "properties": {"name": "Comune di Morgongiori", "description": "http://www.comune.morgongiori.or.it"}}, {"type": "Feature", "geometry": {"type": "Point", "coordinates": [10.8325, 45.9203]}, "properties": {"name": "Comune di Tenno", "description": "http://www.comune.tenno.tn.it"}}, {"type": "Feature", "geometry": {"type": "Point", "coordinates": [11.0777, 46.3678]}, "properties": {"name": "Comune di Sanzeno", "description": "http://www.comune.sanzeno.tn.it"}}, {"type": "Feature", "geometry": {"type": "Point", "coordinates": [9.4978, 45.3129]}, "properties": {"name": "Comune di Lodi", "description": "http://www.comune.lodi.it"}}, {"type": "Feature", "geometry": {"type": "Point", "coordinates": [10.6734, 46.3628]}, "properties": {"name": "Comune di Peio", "description": "http://www.comune.peio.tn.it"}}, {"type": "Feature", "geometry": {"type": "Point", "coordinates": [14.0396, 41.7472]}, "properties": {"name": "Comune di Scontrone", "description": "http://www.comune.scontrone.aq.it"}}, {"type": "Feature", "geometry": {"type": "Point", "coordinates": [12.995, 45.7642]}, "properties": {"name": "Comune di San Michele Al Tagliamento", "description": "http://www.comunesanmichele.it"}}, {"type": "Feature", "geometry": {"type": "Point", "coordinates": [11.6203, 45.196999999999996]}, "properties": {"name": "Comune di Carceri", "description": "http://www.comune.carceri.pd.it"}}, {"type": "Feature", "geometry": {"type": "Point", "coordinates": [10.8775, 45.8693]}, "properties": {"name": "Comune di Nago-Torbole", "description": "http://www.comune.nago-torbole.tn.it"}}, {"type": "Feature", "geometry": {"type": "Point", "coordinates": [11.5131, 46.2914]}, "properties": {"name": "Comune di Tesero", "description": "http://www.comune.tesero.tn.it"}}, {"type": "Feature", "geometry": {"type": "Point", "coordinates": [11.1443, 46.3953]}, "properties": {"name": "Comune di Amblar Don", "description": "http://www.comune.amblardon.tn.it/"}}, {"type": "Feature", "geometry": {"type": "Point", "coordinates": [9.305, 46.1699]}, "properties": {"name": "Comune di Livo TN", "description": "http://www.comune.livo.tn.it"}}, {"type": "Feature", "geometry": {"type": "Point", "coordinates": [11.7108, 45.1363]}, "properties": {"name": "Comune di Vescovana", "description": "http://www.comune.vescovana.pd.it"}}, {"type": "Feature", "geometry": {"type": "Point", "coordinates": [7.7709, 45.1371]}, "properties": {"name": "Comune di Settimo Torinese", "description": "http://www.comune.settimo-torinese.to.it"}}, {"type": "Feature", "geometry": {"type": "Point", "coordinates": [7.2454, 44.8085]}, "properties": {"name": "Comune di Luserna", "description": "http://www.comune.luserna.tn.it"}}, {"type": "Feature", "geometry": {"type": "Point", "coordinates": [10.9586, 46.3682]}, "properties": {"name": "Comune di Cavizzana", "description": "http://www.comune.cavizzana.tn.it/"}}, {"type": "Feature", "geometry": {"type": "Point", "coordinates": [8.8586, 45.3171]}, "properties": {"name": "Comune di Vigevano", "description": "http://www.comune.vigevano.pv.it"}}, {"type": "Feature", "geometry": {"type": "Point", "coordinates": [9.1878, 45.4612]}, "properties": {"name": "Comune di Milano", "description": "http://www.comune.milano.it"}}, {"type": "Feature", "geometry": {"type": "Point", "coordinates": [11.1184, 46.4566]}, "properties": {"name": "Comune di Castelfondo", "description": "http://www.comune.castelfondo.tn.it/"}}, {"type": "Feature", "geometry": {"type": "Point", "coordinates": [11.3156, 46.2228]}, "properties": {"name": "Comune di Sover", "description": "http://www.comune.sover.tn.it"}}, {"type": "Feature", "geometry": {"type": "Point", "coordinates": [12.3384, 45.4345]}, "properties": {"name": "Comune di Venezia", "description": "http://www.comune.venezia.it"}}, {"type": "Feature", "geometry": {"type": "Point", "coordinates": [11.4502, 46.3025]}, "properties": {"name": "Comune di Daiano", "description": "http://www.comune.daiano.tn.it"}}, {"type": "Feature", "geometry": {"type": "Point", "coordinates": [10.7521, 46.1213]}, "properties": {"name": "Comune di Strembo", "description": "http://www.comune.strembo.tn.it/"}}, {"type": "Feature", "geometry": {"type": "Point", "coordinates": [8.9949, 45.476000000000006]}, "properties": {"name": "Comune di Bareggio", "description": "http://www.comune.bareggio.mi.it"}}, {"type": "Feature", "geometry": {"type": "Point", "coordinates": [10.2041, 44.4778]}, "properties": {"name": "Comune di Capriglio", "description": "http://www.comune.capriglio.at.it"}}, {"type": "Feature", "geometry": {"type": "Point", "coordinates": [7.9102, 44.9075]}, "properties": {"name": "Comune di Isolabella", "description": "http://comune.isolabella.to.it"}}, {"type": "Feature", "geometry": {"type": "Point", "coordinates": [7.9942, 44.8783]}, "properties": {"name": "Comune di Ferrere", "description": "http://www.comune.ferrere.at.it"}}, {"type": "Feature", "geometry": {"type": "Point", "coordinates": [9.1106, 46.0722]}, "properties": {"name": "Comune di Val Rezzo", "description": "http://www.comune.valrezzo.co.it"}}, {"type": "Feature", "geometry": {"type": "Point", "coordinates": [11.4351, 46.2819]}, "properties": {"name": "Comune di Castello-Molina di Fiemme", "description": "http://www.comune.castellomolina.tn.it"}}, {"type": "Feature", "geometry": {"type": "Point", "coordinates": [7.9531, 45.0952]}, "properties": {"name": "Comune di Berzano di San Pietro", "description": "http://www.comune.berzanosanpietro.at.it"}}, {"type": "Feature", "geometry": {"type": "Point", "coordinates": [10.8445, 45.8881]}, "properties": {"name": "Comune di Riva del Garda", "description": "http://www.comune.rivadelgarda.tn.it"}}, {"type": "Feature", "geometry": {"type": "Point", "coordinates": [11.0867, 46.265]}, "properties": {"name": "Comune di Ton", "description": "http://www.comune.ton.tn.it"}}, {"type": "Feature", "geometry": {"type": "Point", "coordinates": [8.5585, 40.7272]}, "properties": {"name": "Comune di Sassari", "description": "http://www.comune.sassari.it"}}, {"type": "Feature", "geometry": {"type": "Point", "coordinates": [13.0058, 41.7302]}, "properties": {"name": "Comune di Colleferro", "description": "http://www.comune.colleferro.rm.it"}}, {"type": "Feature", "geometry": {"type": "Point", "coordinates": [8.0246, 45.1158]}, "properties": {"name": "Comune di Moransengo", "description": "http://www.comune.moransengo.at.it"}}, {"type": "Feature", "geometry": {"type": "Point", "coordinates": [8.0767, 44.8866]}, "properties": {"name": "Comune di Tigliole", "description": "http://www.comune.tigliole.at.it"}}, {"type": "Feature", "geometry": {"type": "Point", "coordinates": [11.2702, 45.3962]}, "properties": {"name": "Comune di San Bonifacio", "description": "http://www.comune.sanbonifacio.vr.it"}}, {"type": "Feature", "geometry": {"type": "Point", "coordinates": [10.60143, 45.89063]}, "properties": {"name": "Comune di Borgo Chiese", "description": "http://www.comune.borgochiese.tn.it"}}, {"type": "Feature", "geometry": {"type": "Point", "coordinates": [11.0711, 46.3217]}, "properties": {"name": "Comune di Predaia", "description": "http://www.comune.predaia.tn.it"}}, {"type": "Feature", "geometry": {"type": "Point", "coordinates": [15.5566, 38.1922]}, "properties": {"name": "Comune di Messina", "description": "http://www.comunemessina.gov.it"}}, {"type": "Feature", "geometry": {"type": "Point", "coordinates": [10.9955, 45.442]}, "properties": {"name": "Comune di Verona", "description": "http://www.comune.verona.it"}}, {"type": "Feature", "geometry": {"type": "Point", "coordinates": [11.6334, 46.0646]}, "properties": {"name": "Comune di Castello Tesino", "description": "http://www.comune.castello-tesino.tn.it"}}, {"type": "Feature", "geometry": {"type": "Point", "coordinates": [11.0052, 46.1661]}, "properties": {"name": "Comune di Andalo", "description": "http://www.comune.andalo.tn.it"}}, {"type": "Feature", "geometry": {"type": "Point", "coordinates": [11.1195, 46.3958]}, "properties": {"name": "Comune di Romeno", "description": "http://www.comune.romeno.tn.it"}}, {"type": "Feature", "geometry": {"type": "Point", "coordinates": [14.3307, 42.1024]}, "properties": {"name": "Comune di Altino", "description": "http://www.comune.altino.ch.it"}}, {"type": "Feature", "geometry": {"type": "Point", "coordinates": [13.5785, 46.5054]}, "properties": {"name": "Comune di Tarvisio", "description": "http://www.comune.tarvisio.ud.it"}}, {"type": "Feature", "geometry": {"type": "Point", "coordinates": [13.0169, 43.8449]}, "properties": {"name": "Comune di Fano", "description": "http://www.comune.fano.pu.it"}}, {"type": "Feature", "geometry": {"type": "Point", "coordinates": [12.4833, 41.9]}, "properties": {"name": "ROMA CAPITALE", "description": "http://www.comune.roma.it"}}, {"type": "Feature", "geometry": {"type": "Point", "coordinates": [8.0727, 44.9353]}, "properties": {"name": "Comune di Monale", "description": "http://www.comune.monale.at.it"}}, {"type": "Feature", "geometry": {"type": "Point", "coordinates": [11.0633, 45.9185]}, "properties": {"name": "Comune di Volano", "description": "http://www.comune.volano.tn.it"}}, {"type": "Feature", "geometry": {"type": "Point", "coordinates": [10.9438, 45.97]}, "properties": {"name": "Comune di Drena", "description": "http://www.comune.drena.tn.it/"}}, {"type": "Feature", "geometry": {"type": "Point", "coordinates": [11.1347, 46.1939]}, "properties": {"name": "Comune di San Michele all'Adige", "description": "http://www.comune.sanmichelealladige.tn.it"}}, {"type": "Feature", "geometry": {"type": "Point", "coordinates": [12.5957, 42.2971]}, "properties": {"name": "Comune di Forano", "description": "http://www.comune.forano.ri.it"}}, {"type": "Feature", "geometry": {"type": "Point", "coordinates": [9.0393, 44.6004]}, "properties": {"name": "Comune di Vobbia", "description": "http://vobbia.unionedelloscrivia.ge.it"}}, {"type": "Feature", "geometry": {"type": "Point", "coordinates": [11.1474, 46.437]}, "properties": {"name": "Comune di Malosco", "description": "http://www.comune.malosco.tn.it"}}, {"type": "Feature", "geometry": {"type": "Point", "coordinates": [11.6114, 46.0692]}, "properties": {"name": "Comune di Pieve Tesino", "description": "http://www.comune.pievetesino.tn.it"}}, {"type": "Feature", "geometry": {"type": "Point", "coordinates": [14.2775, 40.9003]}, "properties": {"name": "Comune di Casavatore", "description": "http://www.comune.casavatore.na.it"}}, {"type": "Feature", "geometry": {"type": "Point", "coordinates": [11.6008, 46.3099]}, "properties": {"name": "Comune di Predazzo", "description": "http://www.comune.predazzo.tn.it"}}, {"type": "Feature", "geometry": {"type": "Point", "coordinates": [13.7492, 37.3492]}, "properties": {"name": "Comune di Castrofilippo", "description": "http://www.comune.castrofilippo.ag.it"}}, {"type": "Feature", "geometry": {"type": "Point", "coordinates": [10.64125, 44.695591]}, "properties": {"name": "Comune di Reggio Emilia", "description": "http://www.comune.re.it"}}, {"type": "Feature", "geometry": {"type": "Point", "coordinates": [8.027000000000001, 44.9524]}, "properties": {"name": "Comune di Roatto", "description": "http://www.comune.roatto.at.it"}}, {"type": "Feature", "geometry": {"type": "Point", "coordinates": [10.9762, 45.8528]}, "properties": {"name": "Comune di Mori", "description": "http://www.comune.mori.tn.it"}}, {"type": "Feature", "geometry": {"type": "Point", "coordinates": [11.073, 45.9295]}, "properties": {"name": "Comune di Nomi", "description": "http://www.comune.nomi.tn.it"}}, {"type": "Feature", "geometry": {"type": "Point", "coordinates": [13.3519, 41.6401]}, "properties": {"name": "Comune di Frosinone", "description": "http://www.comune.frosinone.gov.it"}}, {"type": "Feature", "geometry": {"type": "Point", "coordinates": [7.9674, 44.903]}, "properties": {"name": "Comune di Valfenera", "description": "http://www.comune.valfenera.at.it"}}, {"type": "Feature", "geometry": {"type": "Point", "coordinates": [12.9047, 43.3361]}, "properties": {"name": "Comune di Fabriano", "description": "http://www.comune.fabriano.an.it"}}, {"type": "Feature", "geometry": {"type": "Point", "coordinates": [11.3026, 46.0111]}, "properties": {"name": "Comune di Levico Terme", "description": "http://www.comune.levico-terme.tn.it"}}, {"type": "Feature", "geometry": {"type": "Point", "coordinates": [11.6204, 44.8379]}, "properties": {"name": "Comune di Ferrara", "description": "http://www.comune.fe.it"}}, {"type": "Feature", "geometry": {"type": "Point", "coordinates": [8.5133, 45.9514]}, "properties": {"name": "Comune di Bieno", "description": "http://www.comune.bieno.tn.it"}}, {"type": "Feature", "geometry": {"type": "Point", "coordinates": [8.2497, 44.7915]}, "properties": {"name": "Comune di Agliano Terme", "description": "http://www.comune.aglianoterme.at.it"}}, {"type": "Feature", "geometry": {"type": "Point", "coordinates": [11.1428, 46.4216]}, "properties": {"name": "Comune di Sarnonico", "description": "http://www.comune.sarnonico.tn.it"}}, {"type": "Feature", "geometry": {"type": "Point", "coordinates": [9.1309, 46.0394]}, "properties": {"name": "Comune di Porlezza", "description": "http://www.comune.porlezza.co.it"}}, {"type": "Feature", "geometry": {"type": "Point", "coordinates": [16.8693, 41.1261]}, "properties": {"name": "Comune di Bari", "description": "http://www.comune.bari.it"}}, {"type": "Feature", "geometry": {"type": "Point", "coordinates": [11.52224, 46.06757]}, "properties": {"name": "Comune di Castel Ivano", "description": "http://www.comunecastelivano.tn.it"}}, {"type": "Feature", "geometry": {"type": "Point", "coordinates": [11.0103, 45.8886]}, "properties": {"name": "Comune di Isera", "description": "http://www.comune.isera.tn.it"}}, {"type": "Feature", "geometry": {"type": "Point", "coordinates": [10.0117, 45.4783]}, "properties": {"name": "Comune di Trenzano", "description": "http://www.comune.trenzano.bs.it"}}, {"type": "Feature", "geometry": {"type": "Point", "coordinates": [13.6969, 41.6944]}, "properties": {"name": "Comune di Posta Fibreno", "description": "http://www.comune.postafibreno.fr.it"}}, {"type": "Feature", "geometry": {"type": "Point", "coordinates": [8.0328, 44.913000000000004]}, "properties": {"name": "Comune di Villafranca D'Asti", "description": "http://www.comune.villafrancadasti.at.it"}}, {"type": "Feature", "geometry": {"type": "Point", "coordinates": [12.0987, 45.1994]}, "properties": {"name": "Comune di Cantarana", "description": "http://www.comune.cantarana.at.it"}}, {"type": "Feature", "geometry": {"type": "Point", "coordinates": [8.3018, 44.6895]}, "properties": {"name": "Comune di Cassinasco", "description": "http://www.comune.cassinasco.at.it"}}, {"type": "Feature", "geometry": {"type": "Point", "coordinates": [11.6674, 46.3956]}, "properties": {"name": "Comune di Soraga di Fassa", "description": "http://comune.soraga.tn.it"}}, {"type": "Feature", "geometry": {"type": "Point", "coordinates": [11.00065, 46.080002]}, "properties": {"name": "Comune di Vallelaghi", "description": "http://www.comune.vallelaghi.tn.it"}}, {"type": "Feature", "geometry": {"type": "Point", "coordinates": [11.0386, 43.5474]}, "properties": {"name": "Comune di Certaldo", "description": "http://www.comune.certaldo.fi.it"}}, {"type": "Feature", "geometry": {"type": "Point", "coordinates": [10.9252, 44.6471]}, "properties": {"name": "Comune di Modena", "description": "http://www.comune.modena.it/"}}, {"type": "Feature", "geometry": {"type": "Point", "coordinates": [11.3305, 43.3187]}, "properties": {"name": "Comune di Siena", "description": "http://www.comune.siena.it"}}, {"type": "Feature", "geometry": {"type": "Point", "coordinates": [11.0341, 46.3661]}, "properties": {"name": "Comune di Cles", "description": "http://www.comune.cles.tn.it"}}, {"type": "Feature", "geometry": {"type": "Point", "coordinates": [16.1441, 40.3937]}, "properties": {"name": "Comune di Gorgoglione", "description": "http://www.comune.gorgoglione.mt.it"}}, {"type": "Feature", "geometry": {"type": "Point", "coordinates": [14.0799, 41.8477]}, "properties": {"name": "Comune di Roccaraso", "description": "http://www.comunediroccaraso.it"}}, {"type": "Feature", "geometry": {"type": "Point", "coordinates": [10.2167, 44.7518]}, "properties": {"name": "Comune di Collecchio", "description": "http://www.comune.collecchio.pr.it"}}, {"type": "Feature", "geometry": {"type": "Point", "coordinates": [17.3349, 40.7042]}, "properties": {"name": "Comune di Martina Franca", "description": "http://www.comune.martinafranca.ta.it"}}, {"type": "Feature", "geometry": {"type": "Point", "coordinates": [14.1389, 42.5051]}, "properties": {"name": "Comune di Montesilvano", "description": "http://www.comune.montesilvano.pe.it"}}, {"type": "Feature", "geometry": {"type": "Point", "coordinates": [9.2852, 45.3983]}, "properties": {"name": "Comune di San Giuliano Milanese", "description": "http://www.sangiulianonline.it"}}, {"type": "Feature", "geometry": {"type": "Point", "coordinates": [10.3966, 43.7161]}, "properties": {"name": "Comune di Pisa", "description": "http://www.comune.pisa.it"}}, {"type": "Feature", "geometry": {"type": "Point", "coordinates": [15.651720000000001, 38.112701]}, "properties": {"name": "Comune di Reggio Calabria", "description": "http://www.reggiocal.it"}}, {"type": "Feature", "geometry": {"type": "Point", "coordinates": [8.0241, 44.9897]}, "properties": {"name": "Comune di Montafia", "description": "http://www.comune.montafia.asti.it"}}, {"type": "Feature", "geometry": {"type": "Point", "coordinates": [10.7122, 46.062672]}, "properties": {"name": "Comune di Porte di Rendena", "description": "http://www.comuneportedirendena.tn.it/"}}, {"type": "Feature", "geometry": {"type": "Point", "coordinates": [8.3901, 44.6988]}, "properties": {"name": "Comune di Montabone", "description": "http://www.comune.montabone.at.it"}}, {"type": "Feature", "geometry": {"type": "Point", "coordinates": [8.9696, 45.4874]}, "properties": {"name": "Comune di Sedriano", "description": "http://www.comune.sedriano.mi.it"}}, {"type": "Feature", "geometry": {"type": "Point", "coordinates": [12.005, 43.7939]}, "properties": {"name": "Comune di Verghereto", "description": "http://www.comune.verghereto.fc.it"}}, {"type": "Feature", "geometry": {"type": "Point", "coordinates": [11.1846, 46.0914]}, "properties": {"name": "Comune di Civezzano", "description": "http://www.comunecivezzano.it"}}, {"type": "Feature", "geometry": {"type": "Point", "coordinates": [11.0884, 46.0041]}, "properties": {"name": "Comune di Garniga Terme", "description": "http://www.comunegarnigaterme.it"}}, {"type": "Feature", "geometry": {"type": "Point", "coordinates": [10.8451, 45.5054]}, "properties": {"name": "Comune di Ospedaletto (TN)", "description": "http://www.comune.ospedaletto.tn.it"}}, {"type": "Feature", "geometry": {"type": "Point", "coordinates": [11.0003, 45.7578]}, "properties": {"name": "Comune di Ala", "description": "http://www.comune.ala.tn.it"}}, {"type": "Feature", "geometry": {"type": "Point", "coordinates": [11.2892, 44.7271]}, "properties": {"name": "Comune di Cento", "description": "http://www.comune.cento.fe.it"}}, {"type": "Feature", "geometry": {"type": "Point", "coordinates": [8.95, 44.4167]}, "properties": {"name": "Comune di Genova", "description": "http://www.comune.genova.it"}}, {"type": "Feature", "geometry": {"type": "Point", "coordinates": [8.617, 44.9132]}, "properties": {"name": "Comune di Alessandria", "description": "http://www.comune.alessandria.it"}}, {"type": "Feature", "geometry": {"type": "Point", "coordinates": [11.7522, 42.465]}, "properties": {"name": "Comune di Canino", "description": "http://www.comune.canino.vt.it"}}, {"type": "Feature", "geometry": {"type": "Point", "coordinates": [12.55161, 43.067551]}, "properties": {"name": "Comune di Bastia Umbra", "description": "http://www.comunebastiaumbra.gov.it"}}, {"type": "Feature", "geometry": {"type": "Point", "coordinates": [9.6832, 45.3618]}, "properties": {"name": "Comune di Crema", "description": "http://www.comune.crema.cr.it"}}, {"type": "Feature", "geometry": {"type": "Point", "coordinates": [11.02407, 46.32985]}, "properties": {"name": "Comune di Ville D'Anaunia", "description": "http://www.comune.villedanaunia.tn.it"}}, {"type": "Feature", "geometry": {"type": "Point", "coordinates": [11.1619, 46.1923]}, "properties": {"name": "Comune di Faedo", "description": "http://www.comune.faedo.tn.it"}}, {"type": "Feature", "geometry": {"type": "Point", "coordinates": [10.8441, 46.0045]}, "properties": {"name": "Comune di Fiave'", "description": "http://www.comune.fiave.tn.it"}}, {"type": "Feature", "geometry": {"type": "Point", "coordinates": [14.3078, 42.0636]}, "properties": {"name": "Comune di Roccascalegna", "description": "http://www.comuneroccascalegna.gov.it"}}, {"type": "Feature", "geometry": {"type": "Point", "coordinates": [11.2449, 46.0056]}, "properties": {"name": "Comune di Calceranica al Lago", "description": "http://www.comune.calceranica.tn.it"}}, {"type": "Feature", "geometry": {"type": "Point", "coordinates": [11.1216, 46.0703]}, "properties": {"name": "Comune di Trento", "description": "http://www.comune.trento.it"}}, {"type": "Feature", "geometry": {"type": "Point", "coordinates": [11.9877, 46.0891]}, "properties": {"name": "Comune di Cesiomaggiore", "description": "http://www.comune.cesiomaggiore.bl.it"}}, {"type": "Feature", "geometry": {"type": "Point", "coordinates": [8.2102, 44.9824]}, "properties": {"name": "Comune di Castell'Alfero", "description": "http://www.comune.castellalfero.at.it"}}, {"type": "Feature", "geometry": {"type": "Point", "coordinates": [11.3195, 46.1124]}, "properties": {"name": "Comune di Fierozzo", "description": "http://www.comune.fierozzo.tn.it"}}, {"type": "Feature", "geometry": {"type": "Point", "coordinates": [11.5403, 45.5459]}, "properties": {"name": "Comune di Vicenza", "description": "http://www.comune.vicenza.it"}}, {"type": "Feature", "geometry": {"type": "Point", "coordinates": [9.0543, 46.025]}, "properties": {"name": "Comune di Valsolda", "description": "http://www.comune.valsolda.co.it"}}, {"type": "Feature", "geometry": {"type": "Point", "coordinates": [13.376, 45.9914]}, "properties": {"name": "Comune di Manzano", "description": "http://www.comune.manzano.ud.it"}}, {"type": "Feature", "geometry": {"type": "Point", "coordinates": [9.1595, 45.5674]}, "properties": {"name": "Comune di Paderno Dugnano", "description": "http://www.comune.paderno-dugnano.mi.it"}}, {"type": "Feature", "geometry": {"type": "Point", "coordinates": [8.3006, 44.9994]}, "properties": {"name": "Comune di Grana", "description": "http://www.comune.grana.at.it/"}}, {"type": "Feature", "geometry": {"type": "Point", "coordinates": [8.2281, 44.7393]}, "properties": {"name": "Comune di Calosso", "description": "http://www.comune.calosso.at.it"}}, {"type": "Feature", "geometry": {"type": "Point", "coordinates": [11.3034, 46.1099]}, "properties": {"name": "Comune di Sant'Orsola Terme", "description": "http://www.comune.santorsolaterme.tn.it"}}, {"type": "Feature", "geometry": {"type": "Point", "coordinates": [9.8135, 44.1097]}, "properties": {"name": "Comune di La Spezia", "description": "http://www.comune.sp.it"}}, {"type": "Feature", "geometry": {"type": "Point", "coordinates": [11.9599, 43.8336]}, "properties": {"name": "Comune di Bagno di Romagna", "description": "http://www.comune.bagnodiromagna.fc.it"}}, {"type": "Feature", "geometry": {"type": "Point", "coordinates": [9.1279, 46.0898]}, "properties": {"name": "Comune di San Nazzaro Val Cavargna", "description": "http://www.comune.sannazzarovalcavargna.co.it"}}, {"type": "Feature", "geometry": {"type": "Point", "coordinates": [11.4605, 46.2902]}, "properties": {"name": "Comune di Cavalese", "description": "http://www.comunecavalese.it"}}, {"type": "Feature", "geometry": {"type": "Point", "coordinates": [8.0019, 45.1188]}, "properties": {"name": "Comune di Tonengo", "description": "http://www.comune.tonengo.at.it"}}, {"type": "Feature", "geometry": {"type": "Point", "coordinates": [18.174, 40.3533]}, "properties": {"name": "Comune di Lecce", "description": "http://www.comune.lecce.it"}}, {"type": "Feature", "geometry": {"type": "Point", "coordinates": [10.5774, 45.8509]}, "properties": {"name": "Comune di Storo", "description": "http://www.comune.storo.tn.it"}}, {"type": "Feature", "geometry": {"type": "Point", "coordinates": [16.2536, 39.2954]}, "properties": {"name": "Comune di Cosenza", "description": "http://www.comune.cosenza.it"}}, {"type": "Feature", "geometry": {"type": "Point", "coordinates": [11.1173, 45.7826]}, "properties": {"name": "Comune di Vallarsa", "description": "http://www.comune.vallarsa.tn.it"}}, {"type": "Feature", "geometry": {"type": "Point", "coordinates": [11.7725, 46.4767]}, "properties": {"name": "Comune di Canazei", "description": "http://www.comune.canazei.tn.it"}}, {"type": "Feature", "geometry": {"type": "Point", "coordinates": [8.357999999999999, 44.9813]}, "properties": {"name": "Comune di Viarigi", "description": "http://www.comune.viarigi.at.it/"}}, {"type": "Feature", "geometry": {"type": "Point", "coordinates": [9.1545, 45.66]}, "properties": {"name": "Comune di Meda", "description": "http://www.comune.meda.mb.it"}}, {"type": "Feature", "geometry": {"type": "Point", "coordinates": [11.0946, 45.9791]}, "properties": {"name": "Comune di Aldeno", "description": "http://www.comune.aldeno.tn.it"}}, {"type": "Feature", "geometry": {"type": "Point", "coordinates": [10.66922, 45.98378]}, "properties": {"name": "Comune di Sella Giudicarie", "description": "http://www.comunesellagiudicarie.tn.it"}}, {"type": "Feature", "geometry": {"type": "Point", "coordinates": [11.1546, 45.8788]}, "properties": {"name": "Comune di Terragnolo", "description": "http://www.comune.terragnolo.tn.it"}}, {"type": "Feature", "geometry": {"type": "Point", "coordinates": [8.3606, 45.0978]}, "properties": {"name": "Comune di Tre Ville", "description": "http://www.comunetreville.tn.it"}}, {"type": "Feature", "geometry": {"type": "Point", "coordinates": [8.4484, 44.7721]}, "properties": {"name": "Comune di Mombaruzzo", "description": "http://www.comune.mombaruzzo.at.it"}}, {"type": "Feature", "geometry": {"type": "Point", "coordinates": [8.0618, 44.9798]}, "properties": {"name": "Comune di Cortazzone", "description": "http://www.comune.cortazzone.at.it"}}, {"type": "Feature", "geometry": {"type": "Point", "coordinates": [10.5254, 42.9259]}, "properties": {"name": "Comune di Piombino", "description": "http://www.comune.piombino.li.it"}}, {"type": "Feature", "geometry": {"type": "Point", "coordinates": [8.34, 44.7974]}, "properties": {"name": "Comune di Vaglio Serra", "description": "http://www.comune.vaglioserra.at.it/"}}, {"type": "Feature", "geometry": {"type": "Point", "coordinates": [10.8545, 46.0512]}, "properties": {"name": "Comune di Stenico", "description": "http://www.comune.stenico.tn.it"}}, {"type": "Feature", "geometry": {"type": "Point", "coordinates": [8.4225, 44.7539]}, "properties": {"name": "Comune di Fontanile", "description": "http://www.comune.fontanile.at.it"}}, {"type": "Feature", "geometry": {"type": "Point", "coordinates": [10.9563, 45.82]}, "properties": {"name": "Comune di Brentonico", "description": "http://www.comune.brentonico.tn.it"}}, {"type": "Feature", "geometry": {"type": "Point", "coordinates": [13.0163, 41.6883]}, "properties": {"name": "Comune di Segni", "description": "http://www.comune.segni.rm.it"}}, {"type": "Feature", "geometry": {"type": "Point", "coordinates": [9.3901, 45.853]}, "properties": {"name": "Comune di Lecco", "description": "http://www.comune.lecco.it"}}, {"type": "Feature", "geometry": {"type": "Point", "coordinates": [11.3387, 44.4938]}, "properties": {"name": "Comune di Bologna", "description": "http://www.comune.bologna.it"}}, {"type": "Feature", "geometry": {"type": "Point", "coordinates": [10.94, 43.8475]}, "properties": {"name": "Comune di Montemagno", "description": "http://www.comune.montemagno.at.it"}}, {"type": "Feature", "geometry": {"type": "Point", "coordinates": [11.1082, 45.943999999999996]}, "properties": {"name": "Comune di Besenello", "description": "http://www.comune.besenello.tn.it"}}, {"type": "Feature", "geometry": {"type": "Point", "coordinates": [9.1566, 45.1859]}, "properties": {"name": "Comune di Pavia", "description": "http://www.comune.pv.it"}}, {"type": "Feature", "geometry": {"type": "Point", "coordinates": [9.0941, 39.2955]}, "properties": {"name": "Comune di Sestu", "description": "http://www.comune.sestu.ca.it"}}, {"type": "Feature", "geometry": {"type": "Point", "coordinates": [8.1586, 44.858999999999995]}, "properties": {"name": "Comune di Revigliasco d'Asti", "description": "http://www.comune.revigliasco.asti.it"}}, {"type": "Feature", "geometry": {"type": "Point", "coordinates": [11.0488, 46.2736]}, "properties": {"name": "Comune di Denno", "description": "http://www.comune.denno.tn.it"}}, {"type": "Feature", "geometry": {"type": "Point", "coordinates": [9.08189, 45.96878]}, "properties": {"name": "Comune di Centro Valle Intelvi", "description": "http://www.comune.centrovalleintelvi.co.it"}}, {"type": "Feature", "geometry": {"type": "Point", "coordinates": [8.4825, 44.4177]}, "properties": {"name": "Comune di Santa Giustina", "description": "http://www.comune.santagiustina.bl.it"}}, {"type": "Feature", "geometry": {"type": "Point", "coordinates": [12.1389, 46.5374]}, "properties": {"name": "Comune di Cortina D' Ampezzo", "description": "http://www.comunecortinadampezzo.it"}}, {"type": "Feature", "geometry": {"type": "Point", "coordinates": [18.0713, 40.1439]}, "properties": {"name": "Comune di Galatone", "description": "http://www.comune.galatone.le.it"}}, {"type": "Feature", "geometry": {"type": "Point", "coordinates": [13.7331, 37.4088]}, "properties": {"name": "Comune di Racalmuto", "description": "http://www.comune.racalmuto.ag.it/"}}, {"type": "Feature", "geometry": {"type": "Point", "coordinates": [10.9424, 46.3651]}, "properties": {"name": "Comune di Caldes", "description": "http://www.comune.caldes.tn.it"}}, {"type": "Feature", "geometry": {"type": "Point", "coordinates": [11.1139, 46.1405]}, "properties": {"name": "Comune di Lavis", "description": "http://www.comune.lavis.tn.it"}}, {"type": "Feature", "geometry": {"type": "Point", "coordinates": [8.7798, 45.58]}, "properties": {"name": "Comune di Vanzaghello", "description": "http://www.comune.vanzaghello.mi.it"}}, {"type": "Feature", "geometry": {"type": "Point", "coordinates": [11.6144, 46.0586]}, "properties": {"name": "Comune di Cinte Tesino", "description": "http://www.comune.cintetesino.tn.it/"}}, {"type": "Feature", "geometry": {"type": "Point", "coordinates": [11.8631, 43.4712]}, "properties": {"name": "Comune di Arezzo", "description": "http://www.comune.arezzo.it"}}, {"type": "Feature", "geometry": {"type": "Point", "coordinates": [10.8378, 46.0251]}, "properties": {"name": "Comune di Bleggio Superiore", "description": "http://www.comune.bleggiosuperiore.tn.it"}}, {"type": "Feature", "geometry": {"type": "Point", "coordinates": [9.1851, 46.0294]}, "properties": {"name": "Comune di Bene Lario", "description": "http://www.comune.benelario.co.it"}}, {"type": "Feature", "geometry": {"type": "Point", "coordinates": [16.6061, 40.6687]}, "properties": {"name": "Comune di Matera", "description": "http://www.comune.mt.it"}}, {"type": "Feature", "geometry": {"type": "Point", "coordinates": [14.5417, 42.1892]}, "properties": {"name": "Comune di Torino di Sangro", "description": "http://www.comune.torinodisangro.ch.it"}}, {"type": "Feature", "geometry": {"type": "Point", "coordinates": [11.1199, 46.2144]}, "properties": {"name": "Comune di Mezzocorona", "description": "http://www.comune.mezzocorona.tn.it"}}, {"type": "Feature", "geometry": {"type": "Point", "coordinates": [16.1609, 39.6189]}, "properties": {"name": "Comune di Roggiano Gravina", "description": "http://www.comune.roggianogravina.cs.it"}}, {"type": "Feature", "geometry": {"type": "Point", "coordinates": [11.7011, 46.4585]}, "properties": {"name": "Comune di Mazzin", "description": "http://www.comune.mazzin.tn.it"}}, {"type": "Feature", "geometry": {"type": "Point", "coordinates": [14.8067, 38.0849]}, "properties": {"name": "Comune di Castell'Umberto", "description": "http://www.comune.castellumberto.me.it"}}, {"type": "Feature", "geometry": {"type": "Point", "coordinates": [14.3563, 42.1981]}, "properties": {"name": "Comune di Castel Frentano", "description": "http://www.comunedicastelfrentano.it"}}, {"type": "Feature", "geometry": {"type": "Point", "coordinates": [11.2206, 46.1452]}, "properties": {"name": "Comune di Lona-lases", "description": "http://www.comune.lonalases.tn.it"}}, {"type": "Feature", "geometry": {"type": "Point", "coordinates": [11.19987, 46.00657]}, "properties": {"name": "Comune di Altopiano della Vigolana", "description": "http://www.comune.vigolana.tn.it"}}, {"type": "Feature", "geometry": {"type": "Point", "coordinates": [17.2298, 40.6047]}, "properties": {"name": "Comune di Crispiano", "description": "http://www.comune.crispiano.ta.it"}}, {"type": "Feature", "geometry": {"type": "Point", "coordinates": [10.308, 43.5519]}, "properties": {"name": "Comune di Livorno", "description": "http://www.comune.livorno.it"}}, {"type": "Feature", "geometry": {"type": "Point", "coordinates": [12.5632, 44.059]}, "properties": {"name": "Comune di Rimini", "description": "http://www.comune.rimini.it"}}, {"type": "Feature", "geometry": {"type": "Point", "coordinates": [9.3924, 45.6767]}, "properties": {"name": "Comune di Osnago", "description": "http://www.osnago.net"}}, {"type": "Feature", "geometry": {"type": "Point", "coordinates": [11.1956, 44.5474]}, "properties": {"name": "Comune di Anzola dell'Emilia", "description": "http://www.comune.anzoladellemilia.bo.it"}}, {"type": "Feature", "geometry": {"type": "Point", "coordinates": [10.9684, 46.4108]}, "properties": {"name": "Comune di Bresimo", "description": "http://www.comune.bresimo.tn.it/"}}, {"type": "Feature", "geometry": {"type": "Point", "coordinates": [11.1716, 46.2495]}, "properties": {"name": "Comune di Rovere' della Luna", "description": "http://www.comune.roveredellaluna.tn.it"}}, {"type": "Feature", "geometry": {"type": "Point", "coordinates": [17.5861, 40.5317]}, "properties": {"name": "Comune di Francavilla Fontana", "description": "http://www.comune.francavillafontana.br.it"}}, {"type": "Feature", "geometry": {"type": "Point", "coordinates": [11.2766, 46.0462]}, "properties": {"name": "Comune di Vignola Falesina", "description": "http://www.comune.vignola-falesina.tn.it/"}}, {"type": "Feature", "geometry": {"type": "Point", "coordinates": [11.7968, 42.0912]}, "properties": {"name": "Comune di Civitavecchia", "description": "http://www.civitavecchia.gov.it"}}, {"type": "Feature", "geometry": {"type": "Point", "coordinates": [12.7335, 38.175]}, "properties": {"name": "Comune di San Vito Lo Capo", "description": "http://www.comune.sanvitolocapo.tp.it"}}, {"type": "Feature", "geometry": {"type": "Point", "coordinates": [10.308, 44.815]}, "properties": {"name": "Comune di Parma", "description": "http://www.comune.parma.it"}}, {"type": "Feature", "geometry": {"type": "Point", "coordinates": [11.5212, 46.0813]}, "properties": {"name": "Comune di Samone", "description": "http://www.comune.samone.tn.it"}}, {"type": "Feature", "geometry": {"type": "Point", "coordinates": [8.8704, 45.4852]}, "properties": {"name": "Comune di Marcallo con Casone", "description": "http://www.marcallo.it"}}, {"type": "Feature", "geometry": {"type": "Point", "coordinates": [8.1909, 45.0248]}, "properties": {"name": "Comune di Tonco", "description": "http://www.comune.tonco.at.it"}}, {"type": "Feature", "geometry": {"type": "Point", "coordinates": [13.3667, 38.1167]}, "properties": {"name": "Comune di Palermo", "description": "http://www.comune.palermo.it"}}, {"type": "Feature", "geometry": {"type": "Point", "coordinates": [10.9124, 45.9624]}, "properties": {"name": "Comune di Dro", "description": "http://www.comunedro.it"}}, {"type": "Feature", "geometry": {"type": "Point", "coordinates": [7.9727, 44.9267]}, "properties": {"name": "Comune di Dusino San Michele", "description": "http://www.comune.dusinosanmichele.at.it"}}, {"type": "Feature", "geometry": {"type": "Point", "coordinates": [11.0342, 46.2589]}, "properties": {"name": "Comune di Campodenno", "description": "http://www.comunecampodenno.it"}}, {"type": "Feature", "geometry": {"type": "Point", "coordinates": [12.6608, 41.7285]}, "properties": {"name": "Comune di Albano Laziale", "description": "http://www.comune.albanolaziale.rm.it"}}, {"type": "Feature", "geometry": {"type": "Point", "coordinates": [11.2653, 46.0167]}, "properties": {"name": "Comune di Tenna", "description": "http://comune.tenna.tn.it"}}, {"type": "Feature", "geometry": {"type": "Point", "coordinates": [12.2429, 44.1391]}, "properties": {"name": "Comune di Cesena", "description": "http://www.comune.cesena.fc.it"}}, {"type": "Feature", "geometry": {"type": "Point", "coordinates": [10.8846, 45.9219]}, "properties": {"name": "Comune di Arco", "description": "http://www.comune.arco.tn.it"}}, {"type": "Feature", "geometry": {"type": "Point", "coordinates": [7.5878, 45.0228]}, "properties": {"name": "Comune di Beinasco", "description": "http://www.comune.beinasco.to.it"}}, {"type": "Feature", "geometry": {"type": "Point", "coordinates": [10.6302, 43.6249]}, "properties": {"name": "Comune di Ponsacco", "description": "http://www.comune.ponsacco.pi.it"}}, {"type": "Feature", "geometry": {"type": "Point", "coordinates": [9.7577, 45.4768]}, "properties": {"name": "Comune di Isso", "description": "http://www.comune.isso.bg.it"}}, {"type": "Feature", "geometry": {"type": "Point", "coordinates": [9.1095, 39.2149]}, "properties": {"name": "Comune di Cagliari", "description": "http://www.comune.cagliari.it"}}, {"type": "Feature", "geometry": {"type": "Point", "coordinates": [10.7654, 46.16]}, "properties": {"name": "Comune di Pinzolo", "description": "http://www.comune.pinzolo.tn.it"}}, {"type": "Feature", "geometry": {"type": "Point", "coordinates": [14.25, 40.8333]}, "properties": {"name": "Comune di Napoli", "description": "http://www.comune.napoli.it"}}, {"type": "Feature", "geometry": {"type": "Point", "coordinates": [8.0743, 44.9257]}, "properties": {"name": "Comune di Castellero", "description": "http://www.comune.castellero.at.it"}}, {"type": "Feature", "geometry": {"type": "Point", "coordinates": [9.7028, 45.4298]}, "properties": {"name": "Comune di Sergnano", "description": "http://www.comune.sergnano.cr.it"}}, {"type": "Feature", "geometry": {"type": "Point", "coordinates": [11.1392, 46.4094]}, "properties": {"name": "Comune di Cavareno", "description": "http://www.comune.cavareno.tn.it"}}, {"type": "Feature", "geometry": {"type": "Point", "coordinates": [10.0261, 45.1335]}, "properties": {"name": "Comune di Cremona", "description": "http://www.comune.cremona.it"}}, {"type": "Feature", "geometry": {"type": "Point", "coordinates": [8.0011, 45.1001]}, "properties": {"name": "Comune di Aramengo", "description": "http://www.comune.aramengo.at.it"}}, {"type": "Feature", "geometry": {"type": "Point", "coordinates": [8.0367, 45.0496]}, "properties": {"name": "Comune di Cerreto D'Asti", "description": "http://www.comune.cerreto.asti.it"}}, {"type": "Feature", "geometry": {"type": "Point", "coordinates": [12.5118, 45.644]}, "properties": {"name": "Comune di Fossalta di Piave", "description": "http://www.comunefossaltadipiave.it"}}, {"type": "Feature", "geometry": {"type": "Point", "coordinates": [8.4787, 44.7605]}, "properties": {"name": "Comune di Maranzana", "description": "http://www.comune.maranzana.at.it"}}, {"type": "Feature", "geometry": {"type": "Point", "coordinates": [12.8437, 43.8987]}, "properties": {"name": "Comune di Pesaro", "description": "http://www.comune.pesaro.pu.it"}}, {"type": "Feature", "geometry": {"type": "Point", "coordinates": [10.7734, 46.1422]}, "properties": {"name": "Comune di Massimeno", "description": "http://www.comune.massimeno.tn.it/"}}, {"type": "Feature", "geometry": {"type": "Point", "coordinates": [7.9719, 44.9517]}, "properties": {"name": "Comune di San Paolo Solbrito", "description": "http://www.comune.sanpaolosolbrito.at.it"}}, {"type": "Feature", "geometry": {"type": "Point", "coordinates": [8.3093, 44.1582]}, "properties": {"name": "Comune di Borgio Verezzi", "description": "http://www.comuneborgioverezzi.it"}}, {"type": "Feature", "geometry": {"type": "Point", "coordinates": [8.6605, 45.8948]}, "properties": {"name": "Comune di Cittiglio", "description": "http://www.comune.cittiglio.va.it"}}, {"type": "Feature", "geometry": {"type": "Point", "coordinates": [7.3132, 45.735]}, "properties": {"name": "Comune di Aosta", "description": "http://www.comune.aosta.it"}}, {"type": "Feature", "geometry": {"type": "Point", "coordinates": [7.2098, 45.5924]}, "properties": {"name": "Comune di Valsavarenche", "description": "http://www.comune.valsavarenche.ao.it"}}, {"type": "Feature", "geometry": {"type": "Point", "coordinates": [8.4626, 45.6987]}, "properties": {"name": "Comune di Borgomanero", "description": "http://www.comune.borgomanero.no.it"}}, {"type": "Feature", "geometry": {"type": "Point", "coordinates": [15.3183, 38.0014]}, "properties": {"name": "Comune di Mandanici", "description": "http://www.comunedimandanici.it"}}, {"type": "Feature", "geometry": {"type": "Point", "coordinates": [11.1906, 43.66]}, "properties": {"name": "Comune di San Casciano in Val di Pesa", "description": "http://www.comune.san-casciano-val-di-pesa.fi.it"}}, {"type": "Feature", "geometry": {"type": "Point", "coordinates": [11.6131, 44.0756]}, "properties": {"name": "Comune di Marradi", "description": "http://www.comune.marradi.fi.it/"}}, {"type": "Feature", "geometry": {"type": "Point", "coordinates": [8.4234, 45.6903]}, "properties": {"name": "Comune di Maggiora", "description": "http://www.comune.maggiora.no.it"}}, {"type": "Feature", "geometry": {"type": "Point", "coordinates": [9.4658, 45.4851]}, "properties": {"name": "Comune di Truccazzano", "description": "http://www.comune.truccazzano.mi.it"}}, {"type": "Feature", "geometry": {"type": "Point", "coordinates": [11.1128, 42.7629]}, "properties": {"name": "Comune di Grosseto", "description": "http://www.comune.grosseto.it"}}, {"type": "Feature", "geometry": {"type": "Point", "coordinates": [9.7374, 45.7252]}, "properties": {"name": "Comune di Villa di Serio", "description": "http://www.comune.villadiserio.bg.it"}}, {"type": "Feature", "geometry": {"type": "Point", "coordinates": [12.4115, 42.2888]}, "properties": {"name": "Comune di Civita Castellana", "description": "http://www.comune.civitacastellana.vt.it"}}, {"type": "Feature", "geometry": {"type": "Point", "coordinates": [8.6667, 45.8462]}, "properties": {"name": "Comune di Besozzo", "description": "http://www.comune.besozzo.va.it"}}, {"type": "Feature", "geometry": {"type": "Point", "coordinates": [11.2679, 44.2784]}, "properties": {"name": "Comune di Monzuno", "description": "http://www.comune.monzuno.bo.it"}}]}